{
  "type": "FeatureCollection",
  "features": [
    {
      "type": "Feature",
      "properties": {
        "id": "toucheng-taiwan",
        "name": "Toucheng, Taiwan",
        "country": "Taiwan",
        "city": "Toucheng",
        "cable_count": 8,
        "cable_names_str": "Apricot, Asia Pacific Gateway (APG), Candle, E2A, FLAG North Asia Loop/REACH North Asia Loop, New Cross Pacific (NCP) Cable System, ORCA, Pacific Light Cable Network (PLCN)",
        "station_type": "國際樞紐"
      },
      "geometry": {
        "type": "Point",
        "coordinates": [
          121.80145279380189,
          24.863592858849902
        ]
      }
    },
    {
      "type": "Feature",
      "properties": {
        "id": "nanhui-china",
        "name": "Nanhui, China",
        "country": "China",
        "city": "Nanhui",
        "cable_count": 3,
        "cable_names_str": "Asia Pacific Gateway (APG), EAC-C2C, New Cross Pacific (NCP) Cable System",
        "station_type": "區域節點"
      },
      "geometry": {
        "type": "Point",
        "coordinates": [
          121.92506915087795,
          30.864713861582327
        ]
      }
    },
    {
      "type": "Feature",
      "properties": {
        "id": "lingang-china",
        "name": "Lingang, China",
        "country": "China",
        "city": "Lingang",
        "cable_count": 2,
        "cable_names_str": "New Cross Pacific (NCP) Cable System, Southeast Asia-Japan Cable 2 (SJC2)",
        "station_type": "端點站"
      },
      "geometry": {
        "type": "Point",
        "coordinates": [
          121.89608163301598,
          30.935661747314708
        ]
      }
    },
    {
      "type": "Feature",
      "properties": {
        "id": "pa-li-taiwan",
        "name": "Pa Li, Taiwan",
        "country": "Taiwan",
        "city": "Pa Li",
        "cable_count": 1,
        "cable_names_str": "EAC-C2C",
        "station_type": "端點站"
      },
      "geometry": {
        "type": "Point",
        "coordinates": [
          121.38319137135348,
          25.149983824511253
        ]
      }
    },
    {
      "type": "Feature",
      "properties": {
        "id": "tseung-kwan-o-china",
        "name": "Tseung Kwan O, China",
        "country": "China",
        "city": "Tseung Kwan O",
        "cable_count": 6,
        "cable_names_str": "Asia Pacific Gateway (APG), Asia Submarine-cable Express (ASE)/Cahaya Malaysia, EAC-C2C, SEA-H2X, Sihanoukville-Hong Kong (SHV-HK), TKO Connect",
        "station_type": "國際樞紐"
      },
      "geometry": {
        "type": "Point",
        "coordinates": [
          114.25868469966966,
          22.31829585896108
        ]
      }
    },
    {
      "type": "Feature",
      "properties": {
        "id": "qingdao-china",
        "name": "Qingdao, China",
        "country": "China",
        "city": "Qingdao",
        "cable_count": 2,
        "cable_names_str": "EAC-C2C, Trans-Pacific Express (TPE) Cable System",
        "station_type": "端點站"
      },
      "geometry": {
        "type": "Point",
        "coordinates": [
          120.34256710854024,
          36.08707301679953
        ]
      }
    },
    {
      "type": "Feature",
      "properties": {
        "id": "tanshui-taiwan",
        "name": "Tanshui, Taiwan",
        "country": "Taiwan",
        "city": "Tanshui",
        "cable_count": 8,
        "cable_names_str": "APCN-2, EAC-C2C, FASTER, Southeast Asia-Japan Cable 2 (SJC2), Taiwan-Matsu No.4, Taiwan Penghu Kinmen Matsu No.2 (TPKM2), Taiwan Strait Express-1 (TSE-1), Trans-Pacific Express (TPE) Cable System",
        "station_type": "國際樞紐"
      },
      "geometry": {
        "type": "Point",
        "coordinates": [
          121.46258584635854,
          25.18136115573805
        ]
      }
    },
    {
      "type": "Feature",
      "properties": {
        "id": "fangshan-taiwan",
        "name": "Fangshan, Taiwan",
        "country": "Taiwan",
        "city": "Fangshan",
        "cable_count": 2,
        "cable_names_str": "EAC-C2C, Southeast Asia-Japan Cable 2 (SJC2)",
        "station_type": "端點站"
      },
      "geometry": {
        "type": "Point",
        "coordinates": [
          120.66209813218148,
          22.249258581382197
        ]
      }
    },
    {
      "type": "Feature",
      "properties": {
        "id": "chung-hom-kok-china",
        "name": "Chung Hom Kok, China",
        "country": "China",
        "city": "Chung Hom Kok",
        "cable_count": 6,
        "cable_names_str": "Asia Direct Cable (ADC), Asia Link Cable (ALC), EAC-C2C, Hainan to Hong Kong Express (H2HE), Southeast Asia-Japan Cable 2 (SJC2), Southeast Asia-Japan Cable (SJC)",
        "station_type": "國際樞紐"
      },
      "geometry": {
        "type": "Point",
        "coordinates": [
          114.2030206766037,
          22.222049985803473
        ]
      }
    },
    {
      "type": "Feature",
      "properties": {
        "id": "guanyin-mountain-china",
        "name": "Guanyin Mountain, China",
        "country": "China",
        "city": "Guanyin Mountain",
        "cable_count": 1,
        "cable_names_str": "Cross-Straits Cable Network (CSCN)",
        "station_type": "端點站"
      },
      "geometry": {
        "type": "Point",
        "coordinates": [
          118.18895535292904,
          24.493917245738405
        ]
      }
    },
    {
      "type": "Feature",
      "properties": {
        "id": "shantou-china",
        "name": "Shantou, China",
        "country": "China",
        "city": "Shantou",
        "cable_count": 3,
        "cable_names_str": "APCN-2, Asia Direct Cable (ADC), Southeast Asia-Japan Cable (SJC)",
        "station_type": "區域節點"
      },
      "geometry": {
        "type": "Point",
        "coordinates": [
          116.67547986258927,
          23.354554663214007
        ]
      }
    },
    {
      "type": "Feature",
      "properties": {
        "id": "guningtou-taiwan",
        "name": "Guningtou, Taiwan",
        "country": "Taiwan",
        "city": "Guningtou",
        "cable_count": 1,
        "cable_names_str": "Cross-Straits Cable Network (CSCN)",
        "station_type": "端點站"
      },
      "geometry": {
        "type": "Point",
        "coordinates": [
          118.30711933172064,
          24.476142461748875
        ]
      }
    },
    {
      "type": "Feature",
      "properties": {
        "id": "lake-ci-taiwan",
        "name": "Lake Ci, Taiwan",
        "country": "Taiwan",
        "city": "Lake Ci",
        "cable_count": 1,
        "cable_names_str": "Cross-Straits Cable Network (CSCN)",
        "station_type": "端點站"
      },
      "geometry": {
        "type": "Point",
        "coordinates": [
          118.28973653153483,
          24.45552056717078
        ]
      }
    },
    {
      "type": "Feature",
      "properties": {
        "id": "dadeng-island-china",
        "name": "Dadeng Island, China",
        "country": "China",
        "city": "Dadeng Island",
        "cable_count": 1,
        "cable_names_str": "Cross-Straits Cable Network (CSCN)",
        "station_type": "端點站"
      },
      "geometry": {
        "type": "Point",
        "coordinates": [
          118.30096699232894,
          24.55673096336322
        ]
      }
    },
    {
      "type": "Feature",
      "properties": {
        "id": "fuzhou-china",
        "name": "Fuzhou, China",
        "country": "China",
        "city": "Fuzhou",
        "cable_count": 1,
        "cable_names_str": "Taiwan Strait Express-1 (TSE-1)",
        "station_type": "端點站"
      },
      "geometry": {
        "type": "Point",
        "coordinates": [
          119.61855638196424,
          25.78006638728176
        ]
      }
    },
    {
      "type": "Feature",
      "properties": {
        "id": "chongming-china",
        "name": "Chongming, China",
        "country": "China",
        "city": "Chongming",
        "cable_count": 4,
        "cable_names_str": "APCN-2, Asia Pacific Gateway (APG), New Cross Pacific (NCP) Cable System, Trans-Pacific Express (TPE) Cable System",
        "station_type": "區域節點"
      },
      "geometry": {
        "type": "Point",
        "coordinates": [
          121.39520308159317,
          31.619883221433906
        ]
      }
    },
    {
      "type": "Feature",
      "properties": {
        "id": "tong-fuk-china",
        "name": "Tong Fuk, China",
        "country": "China",
        "city": "Tong Fuk",
        "cable_count": 1,
        "cable_names_str": "FLAG North Asia Loop/REACH North Asia Loop",
        "station_type": "端點站"
      },
      "geometry": {
        "type": "Point",
        "coordinates": [
          113.93212243100953,
          22.22738364829369
        ]
      }
    },
    {
      "type": "Feature",
      "properties": {
        "id": "lantau-island-china",
        "name": "Lantau Island, China",
        "country": "China",
        "city": "Lantau Island",
        "cable_count": 2,
        "cable_names_str": "APCN-2, Asia-America Gateway (AAG) Cable System",
        "station_type": "端點站"
      },
      "geometry": {
        "type": "Point",
        "coordinates": [
          113.94833335702553,
          22.271491582355683
        ]
      }
    },
    {
      "type": "Feature",
      "properties": {
        "id": "deep-water-bay-china",
        "name": "Deep Water Bay, China",
        "country": "China",
        "city": "Deep Water Bay",
        "cable_count": 1,
        "cable_names_str": "Tata TGN-Intra Asia (TGN-IA)",
        "station_type": "端點站"
      },
      "geometry": {
        "type": "Point",
        "coordinates": [
          114.18397772134277,
          22.24943935172405
        ]
      }
    },
    {
      "type": "Feature",
      "properties": {
        "id": "lingshui-china",
        "name": "Lingshui, China",
        "country": "China",
        "city": "Lingshui",
        "cable_count": 2,
        "cable_names_str": "Asia Link Cable (ALC), SEA-H2X",
        "station_type": "端點站"
      },
      "geometry": {
        "type": "Point",
        "coordinates": [
          110.04937200000029,
          18.389897000000236
        ]
      }
    },
    {
      "type": "Feature",
      "properties": {
        "id": "cape-daguilar-china",
        "name": "Cape D’Aguilar, China",
        "country": "China",
        "city": "Cape D’Aguilar",
        "cable_count": 1,
        "cable_names_str": "Asia Africa Europe-1 (AAE-1)",
        "station_type": "端點站"
      },
      "geometry": {
        "type": "Point",
        "coordinates": [
          114.26028099999986,
          22.208065
        ]
      }
    },
    {
      "type": "Feature",
      "properties": {
        "id": "dawu-taiwan",
        "name": "Dawu, Taiwan",
        "country": "Taiwan",
        "city": "Dawu",
        "cable_count": 2,
        "cable_names_str": "Asia United Gateway East (AUG East), TPU",
        "station_type": "端點站"
      },
      "geometry": {
        "type": "Point",
        "coordinates": [
          120.88978000000047,
          22.340450000000153
        ]
      }
    },
    {
      "type": "Feature",
      "properties": {
        "id": "wujie-taiwan",
        "name": "Wujie, Taiwan",
        "country": "Taiwan",
        "city": "Wujie",
        "cable_count": 1,
        "cable_names_str": "Asia United Gateway East (AUG East)",
        "station_type": "端點站"
      },
      "geometry": {
        "type": "Point",
        "coordinates": [
          121.83117558189409,
          24.66043890836769
        ]
      }
    },
    {
      "type": "Feature",
      "properties": {
        "id": "dongyin-taiwan",
        "name": "Dongyin, Taiwan",
        "country": "Taiwan",
        "city": "Dongyin",
        "cable_count": 3,
        "cable_names_str": "Taiwan-Matsu No.4, Taiwan Penghu Kinmen Matsu No.2 (TPKM2), Taiwan Penghu Kinmen Matsu No.3 (TPKM3)",
        "station_type": "區域節點"
      },
      "geometry": {
        "type": "Point",
        "coordinates": [
          120.4929700000004,
          26.367330000000443
        ]
      }
    },
    {
      "type": "Feature",
      "properties": {
        "id": "nangan-taiwan",
        "name": "Nangan, Taiwan",
        "country": "Taiwan",
        "city": "Nangan",
        "cable_count": 2,
        "cable_names_str": "Taiwan-Matsu No.4, Taiwan Penghu Kinmen Matsu No.3 (TPKM3)",
        "station_type": "端點站"
      },
      "geometry": {
        "type": "Point",
        "coordinates": [
          119.93435,
          26.15516
        ]
      }
    },
    {
      "type": "Feature",
      "properties": {
        "id": "xiju-taiwan",
        "name": "Xiju, Taiwan",
        "country": "Taiwan",
        "city": "Xiju",
        "cable_count": 2,
        "cable_names_str": "Taiwan-Matsu No.4, Taiwan Penghu Kinmen Matsu No.3 (TPKM3)",
        "station_type": "端點站"
      },
      "geometry": {
        "type": "Point",
        "coordinates": [
          119.93907578761032,
          25.973144107820715
        ]
      }
    },
    {
      "type": "Feature",
      "properties": {
        "id": "zhuhai-china",
        "name": "Zhuhai, China",
        "country": "China",
        "city": "Zhuhai",
        "cable_count": 1,
        "cable_names_str": "Hainan to Hong Kong Express (H2HE)",
        "station_type": "端點站"
      },
      "geometry": {
        "type": "Point",
        "coordinates": [
          113.57672717496287,
          22.270712131393918
        ]
      }
    },
    {
      "type": "Feature",
      "properties": {
        "id": "wenchang-china",
        "name": "Wenchang, China",
        "country": "China",
        "city": "Wenchang",
        "cable_count": 1,
        "cable_names_str": "Hainan to Hong Kong Express (H2HE)",
        "station_type": "端點站"
      },
      "geometry": {
        "type": "Point",
        "coordinates": [
          110.76181217688703,
          20.045319429452615
        ]
      }
    },
    {
      "type": "Feature",
      "properties": {
        "id": "chai-wan-china",
        "name": "Chai Wan, China",
        "country": "China",
        "city": "Chai Wan",
        "cable_count": 1,
        "cable_names_str": "TKO Connect",
        "station_type": "端點站"
      },
      "geometry": {
        "type": "Point",
        "coordinates": [
          114.23935699999967,
          22.26885000000032
        ]
      }
    },
    {
      "type": "Feature",
      "properties": {
        "id": "beihai-china",
        "name": "Beihai, China",
        "country": "China",
        "city": "Beihai",
        "cable_count": 1,
        "cable_names_str": "Haikou-Beihai Cable",
        "station_type": "端點站"
      },
      "geometry": {
        "type": "Point",
        "coordinates": [
          109.10530900000046,
          21.484500999999632
        ]
      }
    },
    {
      "type": "Feature",
      "properties": {
        "id": "lingao-china",
        "name": "Lingao, China",
        "country": "China",
        "city": "Lingao",
        "cable_count": 1,
        "cable_names_str": "Haikou-Beihai Cable",
        "station_type": "端點站"
      },
      "geometry": {
        "type": "Point",
        "coordinates": [
          109.67762000000093,
          19.9048
        ]
      }
    },
    {
      "type": "Feature",
      "properties": {
        "id": "mamu-china",
        "name": "Mamu, China",
        "country": "China",
        "city": "Mamu",
        "cable_count": 1,
        "cable_names_str": "Ningbo-Zhoushan Cable",
        "station_type": "端點站"
      },
      "geometry": {
        "type": "Point",
        "coordinates": [
          121.94569495659735,
          30.17189746945603
        ]
      }
    },
    {
      "type": "Feature",
      "properties": {
        "id": "xiepu-china",
        "name": "Xiepu, China",
        "country": "China",
        "city": "Xiepu",
        "cable_count": 1,
        "cable_names_str": "Ningbo-Zhoushan Cable",
        "station_type": "端點站"
      },
      "geometry": {
        "type": "Point",
        "coordinates": [
          121.63985462881675,
          30.043111146660067
        ]
      }
    },
    {
      "type": "Feature",
      "properties": {
        "id": "dalian-china",
        "name": "Dalian, China",
        "country": "China",
        "city": "Dalian",
        "cable_count": 1,
        "cable_names_str": "Dalian-Yantai Cable",
        "station_type": "端點站"
      },
      "geometry": {
        "type": "Point",
        "coordinates": [
          121.57652300000039,
          38.94381
        ]
      }
    },
    {
      "type": "Feature",
      "properties": {
        "id": "yantai-china",
        "name": "Yantai, China",
        "country": "China",
        "city": "Yantai",
        "cable_count": 1,
        "cable_names_str": "Dalian-Yantai Cable",
        "station_type": "端點站"
      },
      "geometry": {
        "type": "Point",
        "coordinates": [
          121.4,
          37.53
        ]
      }
    },
    {
      "type": "Feature",
      "properties": {
        "id": "yuanli-taiwan",
        "name": "Yuanli, Taiwan",
        "country": "Taiwan",
        "city": "Yuanli",
        "cable_count": 1,
        "cable_names_str": "Taiwan Penghu Kinmen Matsu No.2 (TPKM2)",
        "station_type": "端點站"
      },
      "geometry": {
        "type": "Point",
        "coordinates": [
          120.64548999999985,
          24.432460000000326
        ]
      }
    },
    {
      "type": "Feature",
      "properties": {
        "id": "jinhu-township-taiwan",
        "name": "Jinhu Township, Taiwan",
        "country": "Taiwan",
        "city": "Jinhu Township",
        "cable_count": 1,
        "cable_names_str": "Taiwan Penghu Kinmen Matsu No.2 (TPKM2)",
        "station_type": "端點站"
      },
      "geometry": {
        "type": "Point",
        "coordinates": [
          118.43943999999946,
          24.437479999999816
        ]
      }
    },
    {
      "type": "Feature",
      "properties": {
        "id": "budai-taiwan",
        "name": "Budai, Taiwan",
        "country": "Taiwan",
        "city": "Budai",
        "cable_count": 1,
        "cable_names_str": "Taiwan Penghu Kinmen Matsu No.2 (TPKM2)",
        "station_type": "端點站"
      },
      "geometry": {
        "type": "Point",
        "coordinates": [
          120.17046999999953,
          23.362789999999872
        ]
      }
    },
    {
      "type": "Feature",
      "properties": {
        "id": "huxi-township-taiwan",
        "name": "Huxi Township, Taiwan",
        "country": "Taiwan",
        "city": "Huxi Township",
        "cable_count": 2,
        "cable_names_str": "Taiwan Penghu Kinmen Matsu No.2 (TPKM2), Taiwan Penghu Kinmen Matsu No.3 (TPKM3)",
        "station_type": "端點站"
      },
      "geometry": {
        "type": "Point",
        "coordinates": [
          119.65616000000064,
          23.573629999999714
        ]
      }
    },
    {
      "type": "Feature",
      "properties": {
        "id": "jincheng-township-taiwan",
        "name": "Jincheng Township, Taiwan",
        "country": "Taiwan",
        "city": "Jincheng Township",
        "cable_count": 1,
        "cable_names_str": "Taiwan Penghu Kinmen Matsu No.3 (TPKM3)",
        "station_type": "端點站"
      },
      "geometry": {
        "type": "Point",
        "coordinates": [
          118.31584,
          24.413410000000344
        ]
      }
    },
    {
      "type": "Feature",
      "properties": {
        "id": "tainan-taiwan",
        "name": "Tainan, Taiwan",
        "country": "Taiwan",
        "city": "Tainan",
        "cable_count": 1,
        "cable_names_str": "Taiwan Penghu Kinmen Matsu No.3 (TPKM3)",
        "station_type": "端點站"
      },
      "geometry": {
        "type": "Point",
        "coordinates": [
          120.18086199999875,
          22.99721
        ]
      }
    },
    {
      "type": "Feature",
      "properties": {
        "id": "taoyuan-taiwan",
        "name": "Taoyuan, Taiwan",
        "country": "Taiwan",
        "city": "Taoyuan",
        "cable_count": 1,
        "cable_names_str": "Taiwan Penghu Kinmen Matsu No.3 (TPKM3)",
        "station_type": "端點站"
      },
      "geometry": {
        "type": "Point",
        "coordinates": [
          121.31111109999966,
          24.98888889999996
        ]
      }
    },
    {
      "type": "Feature",
      "properties": {
        "id": "magong-taiwan",
        "name": "Magong, Taiwan",
        "country": "Taiwan",
        "city": "Magong",
        "cable_count": 1,
        "cable_names_str": "Taiwan Penghu Kinmen Matsu No.3 (TPKM3)",
        "station_type": "端點站"
      },
      "geometry": {
        "type": "Point",
        "coordinates": [
          119.5745100000003,
          23.571549999999434
        ]
      }
    },
    {
      "type": "Feature",
      "properties": {
        "id": "xiyu-township-taiwan",
        "name": "Xiyu Township, Taiwan",
        "country": "Taiwan",
        "city": "Xiyu Township",
        "cable_count": 1,
        "cable_names_str": "Taiwan Penghu Kinmen Matsu No.3 (TPKM3)",
        "station_type": "端點站"
      },
      "geometry": {
        "type": "Point",
        "coordinates": [
          119.51201999999984,
          23.60192
        ]
      }
    },
    {
      "type": "Feature",
      "properties": {
        "id": "beigan-taiwan",
        "name": "Beigan, Taiwan",
        "country": "Taiwan",
        "city": "Beigan",
        "cable_count": 1,
        "cable_names_str": "Taiwan Penghu Kinmen Matsu No.3 (TPKM3)",
        "station_type": "端點站"
      },
      "geometry": {
        "type": "Point",
        "coordinates": [
          119.98859,
          26.225399999999755
        ]
      }
    }
  ]
}